{
   "type": "FeatureCollection",
   "features": [
  {
    "type": "Feature",
    "geometry": {
       "type": "Point",
       "coordinates":  [ -71.0921156,42.36010367 ]
    },
    "properties": {
    "INSTNM":"Massachusetts Institute of Technology",
    "X":-71.0921156,
    "Y":42.36010367,
    "CITY":"Cambridge",
    "STATE":"MA",
    "INSTNM-2":"Massachusetts Institute of Technology",
    "Degree":"Biological Sciences",
    "Rank":1
    }
  },
  {
    "type": "Feature",
    "geometry": {
       "type": "Point",
       "coordinates":  [ -122.2604762,37.87192296 ]
    },
    "properties": {
    "INSTNM":"University of California-Berkeley",
    "X":-122.2604762,
    "Y":37.87192296,
    "CITY":"Berkeley",
    "STATE":"CA",
    "INSTNM-2":"University of California-Berkeley",
    "Degree":"Biological Sciences",
    "Rank":1
    }
  },
  {
    "type": "Feature",
    "geometry": {
       "type": "Point",
       "coordinates":  [ -71.11831361,42.37447967 ]
    },
    "properties": {
    "INSTNM":"Harvard University",
    "X":-71.11831361,
    "Y":42.37447967,
    "CITY":"Cambridge",
    "STATE":"MA",
    "INSTNM-2":"Harvard University",
    "Degree":"Biological Sciences",
    "Rank":4
    }
  },
  {
    "type": "Feature",
    "geometry": {
       "type": "Point",
       "coordinates":  [ -74.65936664,40.34874016 ]
    },
    "properties": {
    "INSTNM":"Princeton University",
    "X":-74.65936664,
    "Y":40.34874016,
    "CITY":"Princeton",
    "STATE":"NJ",
    "INSTNM-2":"Princeton University",
    "Degree":"Biological Sciences",
    "Rank":6
    }
  },
  {
    "type": "Feature",
    "geometry": {
       "type": "Point",
       "coordinates":  [ -72.92668914,41.31116641 ]
    },
    "properties": {
    "INSTNM":"Yale University",
    "X":-72.92668914,
    "Y":41.31116641,
    "CITY":"New Haven",
    "STATE":"CT",
    "INSTNM-2":"Yale University",
    "Degree":"Biological Sciences",
    "Rank":6
    }
  },
  {
    "type": "Feature",
    "geometry": {
       "type": "Point",
       "coordinates":  [ -78.93762671,36.00114212 ]
    },
    "properties": {
    "INSTNM":"Duke University",
    "X":-78.93762671,
    "Y":36.00114212,
    "CITY":"Durham",
    "STATE":"NC",
    "INSTNM-2":"Duke University",
    "Degree":"Biological Sciences",
    "Rank":10
    }
  },
  {
    "type": "Feature",
    "geometry": {
       "type": "Point",
       "coordinates":  [ -73.95491344,40.76293527 ]
    },
    "properties": {
    "INSTNM":"Rockefeller University",
    "X":-73.95491344,
    "Y":40.76293527,
    "CITY":"New York",
    "STATE":"NY",
    "INSTNM-2":"Rockefeller University",
    "Degree":"Biological Sciences",
    "Rank":13
    }
  },
  {
    "type": "Feature",
    "geometry": {
       "type": "Point",
       "coordinates":  [ -90.31061022,38.64793614 ]
    },
    "properties": {
    "INSTNM":"Washington University in St. Louis",
    "X":-90.31061022,
    "Y":38.64793614,
    "CITY":"Saint Louis",
    "STATE":"MO",
    "INSTNM-2":"Washington University in St. Louis",
    "Degree":"Biological Sciences",
    "Rank":13
    }
  },
  {
    "type": "Feature",
    "geometry": {
       "type": "Point",
       "coordinates":  [ -117.2378049,32.87660278 ]
    },
    "properties": {
    "INSTNM":"University of California-San Diego",
    "X":-117.2378049,
    "Y":32.87660278,
    "CITY":"La Jolla",
    "STATE":"CA",
    "INSTNM-2":"University of California-San Diego",
    "Degree":"Biological Sciences",
    "Rank":16
    }
  },
  {
    "type": "Feature",
    "geometry": {
       "type": "Point",
       "coordinates":  [ -121.7519712,38.53990006 ]
    },
    "properties": {
    "INSTNM":"University of California-Davis",
    "X":-121.7519712,
    "Y":38.53990006,
    "CITY":"Davis",
    "STATE":"CA",
    "INSTNM-2":"University of California-Davis",
    "Degree":"Biological Sciences",
    "Rank":18
    }
  },
  {
    "type": "Feature",
    "geometry": {
       "type": "Point",
       "coordinates":  [ -122.1644471,37.42953693 ]
    },
    "properties": {
    "INSTNM":"Stanford University",
    "X":-122.1644471,
    "Y":37.42953693,
    "CITY":"Stanford",
    "STATE":"CA",
    "INSTNM-2":"Stanford University",
    "Degree":"Biological Sciences",
    "Rank":1
    }
  },
  {
    "type": "Feature",
    "geometry": {
       "type": "Point",
       "coordinates":  [ -118.1257522,34.13927987 ]
    },
    "properties": {
    "INSTNM":"California Institute of Technology",
    "X":-118.1257522,
    "Y":34.13927987,
    "CITY":"Pasadena",
    "STATE":"CA",
    "INSTNM-2":"California Institute of Technology",
    "Degree":"Biological Sciences",
    "Rank":4
    }
  },
  {
    "type": "Feature",
    "geometry": {
       "type": "Point",
       "coordinates":  [ -76.62159719,39.32898489 ]
    },
    "properties": {
    "INSTNM":"Johns Hopkins University",
    "X":-76.62159719,
    "Y":39.32898489,
    "CITY":"Baltimore",
    "STATE":"MD",
    "INSTNM-2":"Johns Hopkins University",
    "Degree":"Biological Sciences",
    "Rank":6
    }
  },
  {
    "type": "Feature",
    "geometry": {
       "type": "Point",
       "coordinates":  [ -122.4580622,37.76274094 ]
    },
    "properties": {
    "INSTNM":"University of California-San Francisco",
    "X":-122.4580622,
    "Y":37.76274094,
    "CITY":"San Francisco",
    "STATE":"CA",
    "INSTNM-2":"University of California-San Francisco",
    "Degree":"Biological Sciences",
    "Rank":6
    }
  },
  {
    "type": "Feature",
    "geometry": {
       "type": "Point",
       "coordinates":  [ -76.48308636,42.44720849 ]
    },
    "properties": {
    "INSTNM":"Cornell University",
    "X":-76.48308636,
    "Y":42.44720849,
    "CITY":"Ithaca",
    "STATE":"NY",
    "INSTNM-2":"Cornell University",
    "Degree":"Biological Sciences",
    "Rank":10
    }
  },
  {
    "type": "Feature",
    "geometry": {
       "type": "Point",
       "coordinates":  [ -117.242234,32.897998 ]
    },
    "properties": {
    "INSTNM":"The Scripps Research Institute",
    "X":-117.242234,
    "Y":32.897998,
    "CITY":"La Jolla",
    "STATE":"CA",
    "INSTNM-2":"The Scripps Research Institute",
    "Degree":"Biological Sciences",
    "Rank":10
    }
  },
  {
    "type": "Feature",
    "geometry": {
       "type": "Point",
       "coordinates":  [ -87.60120173,41.78917784 ]
    },
    "properties": {
    "INSTNM":"University of Chicago",
    "X":-87.60120173,
    "Y":41.78917784,
    "CITY":"Chicago",
    "STATE":"IL",
    "INSTNM-2":"University of Chicago",
    "Degree":"Biological Sciences",
    "Rank":13
    }
  },
  {
    "type": "Feature",
    "geometry": {
       "type": "Point",
       "coordinates":  [ -73.466782,40.857761 ]
    },
    "properties": {
    "INSTNM":"Cold Spring Harbor Laboratory",
    "X":-73.466782,
    "Y":40.857761,
    "CITY":"Cold Spring Harbor",
    "STATE":"NY",
    "INSTNM-2":"Cold Spring Harbor Laboratory",
    "Degree":"Biological Sciences",
    "Rank":16
    }
  },
  {
    "type": "Feature",
    "geometry": {
       "type": "Point",
       "coordinates":  [ -73.96188644,40.80829428 ]
    },
    "properties": {
    "INSTNM":"Columbia University in the City of New York",
    "X":-73.96188644,
    "Y":40.80829428,
    "CITY":"Columbia",
    "STATE":"NY",
    "INSTNM-2":"Columbia University in the City of New York",
    "Degree":"Biological Sciences",
    "Rank":18
    }
  },
  {
    "type": "Feature",
    "geometry": {
       "type": "Point",
       "coordinates":  [ -118.4439132,34.06889685 ]
    },
    "properties": {
    "INSTNM":"University of California-Los Angeles",
    "X":-118.4439132,
    "Y":34.06889685,
    "CITY":"Los Angeles",
    "STATE":"CA",
    "INSTNM-2":"University of California-Los Angeles",
    "Degree":"Biological Sciences",
    "Rank":18
    }
  },
  {
    "type": "Feature",
    "geometry": {
       "type": "Point",
       "coordinates":  [ -96.84116354,32.81231274 ]
    },
    "properties": {
    "INSTNM":"University of Texas Southwestern Medical Center",
    "X":-96.84116354,
    "Y":32.81231274,
    "CITY":"Dallas",
    "STATE":"TX",
    "INSTNM-2":"",
    "Degree":"Biological Sciences",
    "Rank":18
    }
  },
  {
    "type": "Feature",
    "geometry": {
       "type": "Point",
       "coordinates":  [ -89.4053624,43.07386595 ]
    },
    "properties": {
    "INSTNM":"University of Wisconsin-Madison",
    "X":-89.4053624,
    "Y":43.07386595,
    "CITY":"Madison",
    "STATE":"WI",
    "INSTNM-2":"",
    "Degree":"Biological Sciences",
    "Rank":18
    }
  },
  {
    "type": "Feature",
    "geometry": {
       "type": "Point",
       "coordinates":  [ -118.1257522,34.13927987 ]
    },
    "properties": {
    "INSTNM":"California Institute of Technology",
    "X":-118.1257522,
    "Y":34.13927987,
    "CITY":"Pasadena",
    "STATE":"CA",
    "INSTNM-2":"California Institute of Technology",
    "Degree":"Chemistry",
    "Rank":1
    }
  },
  {
    "type": "Feature",
    "geometry": {
       "type": "Point",
       "coordinates":  [ -71.0921156,42.36010367 ]
    },
    "properties": {
    "INSTNM":"Massachusetts Institute of Technology",
    "X":-71.0921156,
    "Y":42.36010367,
    "CITY":"Cambridge",
    "STATE":"MA",
    "INSTNM-2":"Massachusetts Institute of Technology",
    "Degree":"Chemistry",
    "Rank":2
    }
  },
  {
    "type": "Feature",
    "geometry": {
       "type": "Point",
       "coordinates":  [ -122.2604762,37.87192296 ]
    },
    "properties": {
    "INSTNM":"University of California-Berkeley",
    "X":-122.2604762,
    "Y":37.87192296,
    "CITY":"Berkeley",
    "STATE":"CA",
    "INSTNM-2":"University of California-Berkeley",
    "Degree":"Chemistry",
    "Rank":2
    }
  },
  {
    "type": "Feature",
    "geometry": {
       "type": "Point",
       "coordinates":  [ -117.242234,32.897998 ]
    },
    "properties": {
    "INSTNM":"The Scripps Research Institute",
    "X":-117.242234,
    "Y":32.897998,
    "CITY":"La Jolla",
    "STATE":"CA",
    "INSTNM-2":"The Scripps Research Institute",
    "Degree":"Chemistry",
    "Rank":6
    }
  },
  {
    "type": "Feature",
    "geometry": {
       "type": "Point",
       "coordinates":  [ -73.96188644,40.80829428 ]
    },
    "properties": {
    "INSTNM":"Columbia University in the City of New York",
    "X":-73.96188644,
    "Y":40.80829428,
    "CITY":"Columbia",
    "STATE":"NY",
    "INSTNM-2":"Columbia University in the City of New York",
    "Degree":"Chemistry",
    "Rank":9
    }
  },
  {
    "type": "Feature",
    "geometry": {
       "type": "Point",
       "coordinates":  [ -74.65936664,40.34874016 ]
    },
    "properties": {
    "INSTNM":"Princeton University",
    "X":-74.65936664,
    "Y":40.34874016,
    "CITY":"Princeton",
    "STATE":"NJ",
    "INSTNM-2":"Princeton University",
    "Degree":"Chemistry",
    "Rank":9
    }
  },
  {
    "type": "Feature",
    "geometry": {
       "type": "Point",
       "coordinates":  [ -72.92668914,41.31116641 ]
    },
    "properties": {
    "INSTNM":"Yale University",
    "X":-72.92668914,
    "Y":41.31116641,
    "CITY":"New Haven",
    "STATE":"CT",
    "INSTNM-2":"Yale University",
    "Degree":"Chemistry",
    "Rank":9
    }
  },
  {
    "type": "Feature",
    "geometry": {
       "type": "Point",
       "coordinates":  [ -118.4439132,34.06889685 ]
    },
    "properties": {
    "INSTNM":"University of California-Los Angeles",
    "X":-118.4439132,
    "Y":34.06889685,
    "CITY":"Los Angeles",
    "STATE":"CA",
    "INSTNM-2":"University of California-Los Angeles",
    "Degree":"Chemistry",
    "Rank":15
    }
  },
  {
    "type": "Feature",
    "geometry": {
       "type": "Point",
       "coordinates":  [ -79.05097174,35.91177609 ]
    },
    "properties": {
    "INSTNM":"University of North Carolina at Chapel Hill",
    "X":-79.05097174,
    "Y":35.91177609,
    "CITY":"Chapel Hill",
    "STATE":"NC",
    "INSTNM-2":"University of North Carolina at Chapel Hill",
    "Degree":"Chemistry",
    "Rank":15
    }
  },
  {
    "type": "Feature",
    "geometry": {
       "type": "Point",
       "coordinates":  [ -75.19391178,39.95093706 ]
    },
    "properties": {
    "INSTNM":"University of Pennsylvania",
    "X":-75.19391178,
    "Y":39.95093706,
    "CITY":"Philadelphia",
    "STATE":"PA",
    "INSTNM-2":"University of Pennsylvania",
    "Degree":"Chemistry",
    "Rank":19
    }
  },
  {
    "type": "Feature",
    "geometry": {
       "type": "Point",
       "coordinates":  [ -71.11831361,42.37447967 ]
    },
    "properties": {
    "INSTNM":"Harvard University",
    "X":-71.11831361,
    "Y":42.37447967,
    "CITY":"Cambridge",
    "STATE":"MA",
    "INSTNM-2":"Harvard University",
    "Degree":"Chemistry",
    "Rank":2
    }
  },
  {
    "type": "Feature",
    "geometry": {
       "type": "Point",
       "coordinates":  [ -122.1644471,37.42953693 ]
    },
    "properties": {
    "INSTNM":"Stanford University",
    "X":-122.1644471,
    "Y":37.42953693,
    "CITY":"Stanford",
    "STATE":"CA",
    "INSTNM-2":"Stanford University",
    "Degree":"Chemistry",
    "Rank":2
    }
  },
  {
    "type": "Feature",
    "geometry": {
       "type": "Point",
       "coordinates":  [ -87.67986378,42.05036388 ]
    },
    "properties": {
    "INSTNM":"Northwestern University",
    "X":-87.67986378,
    "Y":42.05036388,
    "CITY":"Evanston",
    "STATE":"IL",
    "INSTNM-2":"Northwestern University",
    "Degree":"Chemistry",
    "Rank":6
    }
  },
  {
    "type": "Feature",
    "geometry": {
       "type": "Point",
       "coordinates":  [ -88.23031476,40.10887151 ]
    },
    "properties": {
    "INSTNM":"University of Illinois at Urbana-Champaign",
    "X":-88.23031476,
    "Y":40.10887151,
    "CITY":"Champaign",
    "STATE":"IL",
    "INSTNM-2":"University of Illinois at Urbana-Champaign",
    "Degree":"Chemistry",
    "Rank":6
    }
  },
  {
    "type": "Feature",
    "geometry": {
       "type": "Point",
       "coordinates":  [ -76.48308636,42.44720849 ]
    },
    "properties": {
    "INSTNM":"Cornell University",
    "X":-76.48308636,
    "Y":42.44720849,
    "CITY":"Ithaca",
    "STATE":"NY",
    "INSTNM-2":"Cornell University",
    "Degree":"Chemistry",
    "Rank":9
    }
  },
  {
    "type": "Feature",
    "geometry": {
       "type": "Point",
       "coordinates":  [ -89.4053624,43.07386595 ]
    },
    "properties": {
    "INSTNM":"University of Wisconsin-Madison",
    "X":-89.4053624,
    "Y":43.07386595,
    "CITY":"Madison",
    "STATE":"WI",
    "INSTNM-2":"University of Wisconsin-Madison",
    "Degree":"Chemistry",
    "Rank":9
    }
  },
  {
    "type": "Feature",
    "geometry": {
       "type": "Point",
       "coordinates":  [ -87.60120173,41.78917784 ]
    },
    "properties": {
    "INSTNM":"University of Chicago",
    "X":-87.60120173,
    "Y":41.78917784,
    "CITY":"Chicago",
    "STATE":"IL",
    "INSTNM-2":"University of Chicago",
    "Degree":"Chemistry",
    "Rank":14
    }
  },
  {
    "type": "Feature",
    "geometry": {
       "type": "Point",
       "coordinates":  [ -83.74277362,42.27592913 ]
    },
    "properties": {
    "INSTNM":"University of Michigan-Ann Arbor",
    "X":-83.74277362,
    "Y":42.27592913,
    "CITY":"Ann Arbor",
    "STATE":"MI",
    "INSTNM-2":"University of Michigan-Ann Arbor",
    "Degree":"Chemistry",
    "Rank":15
    }
  },
  {
    "type": "Feature",
    "geometry": {
       "type": "Point",
       "coordinates":  [ -97.73929863,30.28609522 ]
    },
    "properties": {
    "INSTNM":"The University of Texas at Austin",
    "X":-97.73929863,
    "Y":30.28609522,
    "CITY":"Austin",
    "STATE":"TX",
    "INSTNM-2":"The University of Texas at Austin",
    "Degree":"Chemistry",
    "Rank":15
    }
  },
  {
    "type": "Feature",
    "geometry": {
       "type": "Point",
       "coordinates":  [ -84.39483621,33.77242644 ]
    },
    "properties": {
    "INSTNM":"Georgia Institute of Technology-Main Campus",
    "X":-84.39483621,
    "Y":33.77242644,
    "CITY":"Atlanta",
    "STATE":"GA",
    "INSTNM-2":"Georgia Institute of Technology-Main Campus",
    "Degree":"Chemistry",
    "Rank":20
    }
  },
  {
    "type": "Feature",
    "geometry": {
       "type": "Point",
       "coordinates":  [ -77.86164668,40.80074013 ]
    },
    "properties": {
    "INSTNM":"Pennsylvania State University-Main Campus",
    "X":-77.86164668,
    "Y":40.80074013,
    "CITY":"University Park",
    "STATE":"PA",
    "INSTNM-2":"",
    "Degree":"Chemistry",
    "Rank":20
    }
  },
  {
    "type": "Feature",
    "geometry": {
       "type": "Point",
       "coordinates":  [ -117.8412601,33.64843883 ]
    },
    "properties": {
    "INSTNM":"University of California-Irvine",
    "X":-117.8412601,
    "Y":33.64843883,
    "CITY":"Irvine",
    "STATE":"CA",
    "INSTNM-2":"",
    "Degree":"Chemistry",
    "Rank":20
    }
  },
  {
    "type": "Feature",
    "geometry": {
       "type": "Point",
       "coordinates":  [ -117.2378049,32.87660278 ]
    },
    "properties": {
    "INSTNM":"University of California-San Diego",
    "X":-117.2378049,
    "Y":32.87660278,
    "CITY":"La Jolla",
    "STATE":"CA",
    "INSTNM-2":"",
    "Degree":"Chemistry",
    "Rank":20
    }
  },
  {
    "type": "Feature",
    "geometry": {
       "type": "Point",
       "coordinates":  [ -79.9429173,40.44462397 ]
    },
    "properties": {
    "INSTNM":"Carnegie Mellon University",
    "X":-79.9429173,
    "Y":40.44462397,
    "CITY":"Pittsburgh",
    "STATE":"PA",
    "INSTNM-2":"Carnegie Mellon University",
    "Degree":"Computer Sciences",
    "Rank":1
    }
  },
  {
    "type": "Feature",
    "geometry": {
       "type": "Point",
       "coordinates":  [ -122.1644471,37.42953693 ]
    },
    "properties": {
    "INSTNM":"Stanford University",
    "X":-122.1644471,
    "Y":37.42953693,
    "CITY":"Stanford",
    "STATE":"CA",
    "INSTNM-2":"Stanford University",
    "Degree":"Computer Sciences",
    "Rank":1
    }
  },
  {
    "type": "Feature",
    "geometry": {
       "type": "Point",
       "coordinates":  [ -88.23031476,40.10887151 ]
    },
    "properties": {
    "INSTNM":"University of Illinois at Urbana-Champaign",
    "X":-88.23031476,
    "Y":40.10887151,
    "CITY":"Champaign",
    "STATE":"IL",
    "INSTNM-2":"University of Illinois at Urbana-Champaign",
    "Degree":"Computer Sciences",
    "Rank":5
    }
  },
  {
    "type": "Feature",
    "geometry": {
       "type": "Point",
       "coordinates":  [ -122.3131299,47.65621862 ]
    },
    "properties": {
    "INSTNM":"University of Washington-Seattle Campus",
    "X":-122.3131299,
    "Y":47.65621862,
    "CITY":"Seattle",
    "STATE":"WA",
    "INSTNM-2":"University of Washington-Seattle Campus",
    "Degree":"Computer Sciences",
    "Rank":6
    }
  },
  {
    "type": "Feature",
    "geometry": {
       "type": "Point",
       "coordinates":  [ -74.65936664,40.34874016 ]
    },
    "properties": {
    "INSTNM":"Princeton University",
    "X":-74.65936664,
    "Y":40.34874016,
    "CITY":"Princeton",
    "STATE":"NJ",
    "INSTNM-2":"Princeton University",
    "Degree":"Computer Sciences",
    "Rank":8
    }
  },
  {
    "type": "Feature",
    "geometry": {
       "type": "Point",
       "coordinates":  [ -118.1257522,34.13927987 ]
    },
    "properties": {
    "INSTNM":"California Institute of Technology",
    "X":-118.1257522,
    "Y":34.13927987,
    "CITY":"Pasadena",
    "STATE":"CA",
    "INSTNM-2":"California Institute of Technology",
    "Degree":"Computer Sciences",
    "Rank":11
    }
  },
  {
    "type": "Feature",
    "geometry": {
       "type": "Point",
       "coordinates":  [ -73.96188644,40.80829428 ]
    },
    "properties": {
    "INSTNM":"Columbia University in the City of New York",
    "X":-73.96188644,
    "Y":40.80829428,
    "CITY":"Columbia",
    "STATE":"NY",
    "INSTNM-2":"Columbia University in the City of New York",
    "Degree":"Computer Sciences",
    "Rank":13
    }
  },
  {
    "type": "Feature",
    "geometry": {
       "type": "Point",
       "coordinates":  [ -89.4053624,43.07386595 ]
    },
    "properties": {
    "INSTNM":"University of Wisconsin-Madison",
    "X":-89.4053624,
    "Y":43.07386595,
    "CITY":"Madison",
    "STATE":"WI",
    "INSTNM-2":"University of Wisconsin-Madison",
    "Degree":"Computer Sciences",
    "Rank":13
    }
  },
  {
    "type": "Feature",
    "geometry": {
       "type": "Point",
       "coordinates":  [ -117.2378049,32.87660278 ]
    },
    "properties": {
    "INSTNM":"University of California-San Diego",
    "X":-117.2378049,
    "Y":32.87660278,
    "CITY":"La Jolla",
    "STATE":"CA",
    "INSTNM-2":"University of California-San Diego",
    "Degree":"Computer Sciences",
    "Rank":16
    }
  },
  {
    "type": "Feature",
    "geometry": {
       "type": "Point",
       "coordinates":  [ -75.19391178,39.95093706 ]
    },
    "properties": {
    "INSTNM":"University of Pennsylvania",
    "X":-75.19391178,
    "Y":39.95093706,
    "CITY":"Philadelphia",
    "STATE":"PA",
    "INSTNM-2":"University of Pennsylvania",
    "Degree":"Computer Sciences",
    "Rank":19
    }
  },
  {
    "type": "Feature",
    "geometry": {
       "type": "Point",
       "coordinates":  [ -71.0921156,42.36010367 ]
    },
    "properties": {
    "INSTNM":"Massachusetts Institute of Technology",
    "X":-71.0921156,
    "Y":42.36010367,
    "CITY":"Cambridge",
    "STATE":"MA",
    "INSTNM-2":"Massachusetts Institute of Technology",
    "Degree":"Computer Sciences",
    "Rank":1
    }
  },
  {
    "type": "Feature",
    "geometry": {
       "type": "Point",
       "coordinates":  [ -122.2604762,37.87192296 ]
    },
    "properties": {
    "INSTNM":"University of California-Berkeley",
    "X":-122.2604762,
    "Y":37.87192296,
    "CITY":"Berkeley",
    "STATE":"CA",
    "INSTNM-2":"University of California-Berkeley",
    "Degree":"Computer Sciences",
    "Rank":1
    }
  },
  {
    "type": "Feature",
    "geometry": {
       "type": "Point",
       "coordinates":  [ -76.48308636,42.44720849 ]
    },
    "properties": {
    "INSTNM":"Cornell University",
    "X":-76.48308636,
    "Y":42.44720849,
    "CITY":"Ithaca",
    "STATE":"NY",
    "INSTNM-2":"Cornell University",
    "Degree":"Computer Sciences",
    "Rank":6
    }
  },
  {
    "type": "Feature",
    "geometry": {
       "type": "Point",
       "coordinates":  [ -84.39483621,33.77242644 ]
    },
    "properties": {
    "INSTNM":"Georgia Institute of Technology-Main Campus",
    "X":-84.39483621,
    "Y":33.77242644,
    "CITY":"Atlanta",
    "STATE":"GA",
    "INSTNM-2":"Georgia Institute of Technology-Main Campus",
    "Degree":"Computer Sciences",
    "Rank":8
    }
  },
  {
    "type": "Feature",
    "geometry": {
       "type": "Point",
       "coordinates":  [ -97.73929863,30.28609522 ]
    },
    "properties": {
    "INSTNM":"The University of Texas at Austin",
    "X":-97.73929863,
    "Y":30.28609522,
    "CITY":"Austin",
    "STATE":"TX",
    "INSTNM-2":"The University of Texas at Austin",
    "Degree":"Computer Sciences",
    "Rank":10
    }
  },
  {
    "type": "Feature",
    "geometry": {
       "type": "Point",
       "coordinates":  [ -83.74277362,42.27592913 ]
    },
    "properties": {
    "INSTNM":"University of Michigan-Ann Arbor",
    "X":-83.74277362,
    "Y":42.27592913,
    "CITY":"Ann Arbor",
    "STATE":"MI",
    "INSTNM-2":"University of Michigan-Ann Arbor",
    "Degree":"Computer Sciences",
    "Rank":11
    }
  },
  {
    "type": "Feature",
    "geometry": {
       "type": "Point",
       "coordinates":  [ -118.4439132,34.06889685 ]
    },
    "properties": {
    "INSTNM":"University of California-Los Angeles",
    "X":-118.4439132,
    "Y":34.06889685,
    "CITY":"Los Angeles",
    "STATE":"CA",
    "INSTNM-2":"University of California-Los Angeles",
    "Degree":"Computer Sciences",
    "Rank":13
    }
  },
  {
    "type": "Feature",
    "geometry": {
       "type": "Point",
       "coordinates":  [ -71.11831361,42.37447967 ]
    },
    "properties": {
    "INSTNM":"Harvard University",
    "X":-71.11831361,
    "Y":42.37447967,
    "CITY":"Cambridge",
    "STATE":"MA",
    "INSTNM-2":"Harvard University",
    "Degree":"Computer Sciences",
    "Rank":16
    }
  },
  {
    "type": "Feature",
    "geometry": {
       "type": "Point",
       "coordinates":  [ -76.94472327,38.98818581 ]
    },
    "properties": {
    "INSTNM":"University of Maryland-College Park",
    "X":-76.94472327,
    "Y":38.98818581,
    "CITY":"College Park",
    "STATE":"MD",
    "INSTNM-2":"University of Maryland-College Park",
    "Degree":"Computer Sciences",
    "Rank":16
    }
  },
  {
    "type": "Feature",
    "geometry": {
       "type": "Point",
       "coordinates":  [ -86.9144404,40.42821364 ]
    },
    "properties": {
    "INSTNM":"Purdue University-Main Campus",
    "X":-86.9144404,
    "Y":40.42821364,
    "CITY":"West Lafayette",
    "STATE":"IN",
    "INSTNM-2":"Purdue University-Main Campus",
    "Degree":"Computer Sciences",
    "Rank":20
    }
  },
  {
    "type": "Feature",
    "geometry": {
       "type": "Point",
       "coordinates":  [ -95.40204201,29.71790219 ]
    },
    "properties": {
    "INSTNM":"Rice University",
    "X":-95.40204201,
    "Y":29.71790219,
    "CITY":"Houston",
    "STATE":"TX",
    "INSTNM-2":"",
    "Degree":"Computer Sciences",
    "Rank":20
    }
  },
  {
    "type": "Feature",
    "geometry": {
       "type": "Point",
       "coordinates":  [ -72.52672907,42.38600763 ]
    },
    "properties": {
    "INSTNM":"University of Massachusetts-Amherst",
    "X":-72.52672907,
    "Y":42.38600763,
    "CITY":"Amherst",
    "STATE":"MA",
    "INSTNM-2":"",
    "Degree":"Computer Sciences",
    "Rank":20
    }
  },
  {
    "type": "Feature",
    "geometry": {
       "type": "Point",
       "coordinates":  [ -118.2841812,34.02128585 ]
    },
    "properties": {
    "INSTNM":"University of Southern California",
    "X":-118.2841812,
    "Y":34.02128585,
    "CITY":"Los Angeles",
    "STATE":"CA",
    "INSTNM-2":"",
    "Degree":"Computer Sciences",
    "Rank":20
    }
  },
  {
    "type": "Feature",
    "geometry": {
       "type": "Point",
       "coordinates":  [ -72.92668914,41.31116641 ]
    },
    "properties": {
    "INSTNM":"Yale University",
    "X":-72.92668914,
    "Y":41.31116641,
    "CITY":"New Haven",
    "STATE":"CT",
    "INSTNM-2":"",
    "Degree":"Computer Sciences",
    "Rank":20
    }
  },
  {
    "type": "Feature",
    "geometry": {
       "type": "Point",
       "coordinates":  [ -118.1257522,34.13927987 ]
    },
    "properties": {
    "INSTNM":"California Institute of Technology",
    "X":-118.1257522,
    "Y":34.13927987,
    "CITY":"Pasadena",
    "STATE":"CA",
    "INSTNM-2":"California Institute of Technology",
    "Degree":"Earth Sciences",
    "Rank":1
    }
  },
  {
    "type": "Feature",
    "geometry": {
       "type": "Point",
       "coordinates":  [ -122.1644471,37.42953693 ]
    },
    "properties": {
    "INSTNM":"Stanford University",
    "X":-122.1644471,
    "Y":37.42953693,
    "CITY":"Stanford",
    "STATE":"CA",
    "INSTNM-2":"Stanford University",
    "Degree":"Earth Sciences",
    "Rank":2
    }
  },
  {
    "type": "Feature",
    "geometry": {
       "type": "Point",
       "coordinates":  [ -73.96188644,40.80829428 ]
    },
    "properties": {
    "INSTNM":"Columbia University in the City of New York",
    "X":-73.96188644,
    "Y":40.80829428,
    "CITY":"New York",
    "STATE":"NY",
    "INSTNM-2":"Columbia University in the City of New York",
    "Degree":"Earth Sciences",
    "Rank":5
    }
  },
  {
    "type": "Feature",
    "geometry": {
       "type": "Point",
       "coordinates":  [ -97.73929863,30.28609522 ]
    },
    "properties": {
    "INSTNM":"The University of Texas at Austin",
    "X":-97.73929863,
    "Y":30.28609522,
    "CITY":"Austin",
    "STATE":"TX",
    "INSTNM-2":"The University of Texas at Austin",
    "Degree":"Earth Sciences",
    "Rank":7
    }
  },
  {
    "type": "Feature",
    "geometry": {
       "type": "Point",
       "coordinates":  [ -110.9508257,32.232677 ]
    },
    "properties": {
    "INSTNM":"University of Arizona",
    "X":-110.9508257,
    "Y":32.232677,
    "CITY":"Tucson",
    "STATE":"AZ",
    "INSTNM-2":"University of Arizona",
    "Degree":"Earth Sciences",
    "Rank":8
    }
  },
  {
    "type": "Feature",
    "geometry": {
       "type": "Point",
       "coordinates":  [ -83.74277362,42.27592913 ]
    },
    "properties": {
    "INSTNM":"University of Michigan-Ann Arbor",
    "X":-83.74277362,
    "Y":42.27592913,
    "CITY":"Ann Arbor",
    "STATE":"MI",
    "INSTNM-2":"University of Michigan-Ann Arbor",
    "Degree":"Earth Sciences",
    "Rank":10
    }
  },
  {
    "type": "Feature",
    "geometry": {
       "type": "Point",
       "coordinates":  [ -118.4439132,34.06889685 ]
    },
    "properties": {
    "INSTNM":"University of California-Los Angeles",
    "X":-118.4439132,
    "Y":34.06889685,
    "CITY":"Los Angeles",
    "STATE":"CA",
    "INSTNM-2":"University of California-Los Angeles",
    "Degree":"Earth Sciences",
    "Rank":13
    }
  },
  {
    "type": "Feature",
    "geometry": {
       "type": "Point",
       "coordinates":  [ -111.934394,33.41772612 ]
    },
    "properties": {
    "INSTNM":"Arizona State University-Tempe",
    "X":-111.934394,
    "Y":33.41772612,
    "CITY":"Tempe",
    "STATE":"AZ",
    "INSTNM-2":"Arizona State University-Tempe",
    "Degree":"Earth Sciences",
    "Rank":15
    }
  },
  {
    "type": "Feature",
    "geometry": {
       "type": "Point",
       "coordinates":  [ -117.2378049,32.87660278 ]
    },
    "properties": {
    "INSTNM":"University of California-San Diego",
    "X":-117.2378049,
    "Y":32.87660278,
    "CITY":"La Jolla",
    "STATE":"CA",
    "INSTNM-2":"University of California-San Diego",
    "Degree":"Earth Sciences",
    "Rank":15
    }
  },
  {
    "type": "Feature",
    "geometry": {
       "type": "Point",
       "coordinates":  [ -76.48308636,42.44720849 ]
    },
    "properties": {
    "INSTNM":"Cornell University",
    "X":-76.48308636,
    "Y":42.44720849,
    "CITY":"Ithaca",
    "STATE":"NY",
    "INSTNM-2":"Cornell University",
    "Degree":"Earth Sciences",
    "Rank":19
    }
  },
  {
    "type": "Feature",
    "geometry": {
       "type": "Point",
       "coordinates":  [ -71.0921156,42.36010367 ]
    },
    "properties": {
    "INSTNM":"Massachusetts Institute of Technology",
    "X":-71.0921156,
    "Y":42.36010367,
    "CITY":"Cambridge",
    "STATE":"MA",
    "INSTNM-2":"Massachusetts Institute of Technology",
    "Degree":"Earth Sciences",
    "Rank":2
    }
  },
  {
    "type": "Feature",
    "geometry": {
       "type": "Point",
       "coordinates":  [ -122.2604762,37.87192296 ]
    },
    "properties": {
    "INSTNM":"University of California-Berkeley",
    "X":-122.2604762,
    "Y":37.87192296,
    "CITY":"Berkeley",
    "STATE":"CA",
    "INSTNM-2":"University of California-Berkeley",
    "Degree":"Earth Sciences",
    "Rank":2
    }
  },
  {
    "type": "Feature",
    "geometry": {
       "type": "Point",
       "coordinates":  [ -77.86164668,40.80074013 ]
    },
    "properties": {
    "INSTNM":"Pennsylvania State University-Main Campus",
    "X":-77.86164668,
    "Y":40.80074013,
    "CITY":"University Park",
    "STATE":"PA",
    "INSTNM-2":"Pennsylvania State University-Main Campus",
    "Degree":"Earth Sciences",
    "Rank":5
    }
  },
  {
    "type": "Feature",
    "geometry": {
       "type": "Point",
       "coordinates":  [ -71.11831361,42.37447967 ]
    },
    "properties": {
    "INSTNM":"Harvard University",
    "X":-71.11831361,
    "Y":42.37447967,
    "CITY":"Cambridge",
    "STATE":"MA",
    "INSTNM-2":"Harvard University",
    "Degree":"Earth Sciences",
    "Rank":8
    }
  },
  {
    "type": "Feature",
    "geometry": {
       "type": "Point",
       "coordinates":  [ -74.65936664,40.34874016 ]
    },
    "properties": {
    "INSTNM":"Princeton University",
    "X":-74.65936664,
    "Y":40.34874016,
    "CITY":"Princeton",
    "STATE":"NJ",
    "INSTNM-2":"Princeton University",
    "Degree":"Earth Sciences",
    "Rank":10
    }
  },
  {
    "type": "Feature",
    "geometry": {
       "type": "Point",
       "coordinates":  [ -122.3131299,47.65621862 ]
    },
    "properties": {
    "INSTNM":"University of Washington-Seattle Campus",
    "X":-122.3131299,
    "Y":47.65621862,
    "CITY":"Seattle",
    "STATE":"WA",
    "INSTNM-2":"University of Washington-Seattle Campus",
    "Degree":"Earth Sciences",
    "Rank":10
    }
  },
  {
    "type": "Feature",
    "geometry": {
       "type": "Point",
       "coordinates":  [ -72.92668914,41.31116641 ]
    },
    "properties": {
    "INSTNM":"Yale University",
    "X":-72.92668914,
    "Y":41.31116641,
    "CITY":"New Haven",
    "STATE":"CT",
    "INSTNM-2":"Yale University",
    "Degree":"Earth Sciences",
    "Rank":13
    }
  },
  {
    "type": "Feature",
    "geometry": {
       "type": "Point",
       "coordinates":  [ -71.40385067,41.82617856 ]
    },
    "properties": {
    "INSTNM":"Brown University",
    "X":-71.40385067,
    "Y":41.82617856,
    "CITY":"Providence",
    "STATE":"RI",
    "INSTNM-2":"Brown University",
    "Degree":"Earth Sciences",
    "Rank":15
    }
  },
  {
    "type": "Feature",
    "geometry": {
       "type": "Point",
       "coordinates":  [ -89.4053624,43.07386595 ]
    },
    "properties": {
    "INSTNM":"University of Wisconsin-Madison",
    "X":-89.4053624,
    "Y":43.07386595,
    "CITY":"Madison",
    "STATE":"WI",
    "INSTNM-2":"University of Wisconsin-Madison",
    "Degree":"Earth Sciences",
    "Rank":15
    }
  },
  {
    "type": "Feature",
    "geometry": {
       "type": "Point",
       "coordinates":  [ -119.8464385,34.4163018 ]
    },
    "properties": {
    "INSTNM":"University of California-Santa Barbara",
    "X":-119.8464385,
    "Y":34.4163018,
    "CITY":"Santa Barbara",
    "STATE":"CA",
    "INSTNM-2":"University of California-Santa Barbara",
    "Degree":"Earth Sciences",
    "Rank":19
    }
  },
  {
    "type": "Feature",
    "geometry": {
       "type": "Point",
       "coordinates":  [ -122.0588141,36.9955889 ]
    },
    "properties": {
    "INSTNM":"University of California-Santa Cruz",
    "X":-122.0588141,
    "Y":36.9955889,
    "CITY":"Santa Cruz",
    "STATE":"CA",
    "INSTNM-2":"",
    "Degree":"Earth Sciences",
    "Rank":19
    }
  },
  {
    "type": "Feature",
    "geometry": {
       "type": "Point",
       "coordinates":  [ -87.60120173,41.78917784 ]
    },
    "properties": {
    "INSTNM":"University of Chicago",
    "X":-87.60120173,
    "Y":41.78917784,
    "CITY":"Chicago",
    "STATE":"IL",
    "INSTNM-2":"",
    "Degree":"Earth Sciences",
    "Rank":19
    }
  },
  {
    "type": "Feature",
    "geometry": {
       "type": "Point",
       "coordinates":  [ -105.2708332,40.00878744 ]
    },
    "properties": {
    "INSTNM":"University of Colorado Boulder",
    "X":-105.2708332,
    "Y":40.00878744,
    "CITY":"Boulder",
    "STATE":"CO",
    "INSTNM-2":"",
    "Degree":"Earth Sciences",
    "Rank":19
    }
  },
  {
    "type": "Feature",
    "geometry": {
       "type": "Point",
       "coordinates":  [ -74.65936664,40.34874016 ]
    },
    "properties": {
    "INSTNM":"Princeton University",
    "X":-74.65936664,
    "Y":40.34874016,
    "CITY":"Princeton",
    "STATE":"NJ",
    "INSTNM-2":"Princeton University",
    "Degree":"Mathematics",
    "Rank":1
    }
  },
  {
    "type": "Feature",
    "geometry": {
       "type": "Point",
       "coordinates":  [ -71.0921156,42.36010367 ]
    },
    "properties": {
    "INSTNM":"Massachusetts Institute of Technology",
    "X":-71.0921156,
    "Y":42.36010367,
    "CITY":"Cambridge",
    "STATE":"MA",
    "INSTNM-2":"Massachusetts Institute of Technology",
    "Degree":"Mathematics",
    "Rank":2
    }
  },
  {
    "type": "Feature",
    "geometry": {
       "type": "Point",
       "coordinates":  [ -122.2604762,37.87192296 ]
    },
    "properties": {
    "INSTNM":"University of California-Berkeley",
    "X":-122.2604762,
    "Y":37.87192296,
    "CITY":"Berkeley",
    "STATE":"CA",
    "INSTNM-2":"University of California-Berkeley",
    "Degree":"Mathematics",
    "Rank":2
    }
  },
  {
    "type": "Feature",
    "geometry": {
       "type": "Point",
       "coordinates":  [ -73.96188644,40.80829428 ]
    },
    "properties": {
    "INSTNM":"Columbia University in the City of New York",
    "X":-73.96188644,
    "Y":40.80829428,
    "CITY":"New York",
    "STATE":"NY",
    "INSTNM-2":"Columbia University in the City of New York",
    "Degree":"Mathematics",
    "Rank":7
    }
  },
  {
    "type": "Feature",
    "geometry": {
       "type": "Point",
       "coordinates":  [ -118.1257522,34.13927987 ]
    },
    "properties": {
    "INSTNM":"California Institute of Technology",
    "X":-118.1257522,
    "Y":34.13927987,
    "CITY":"Pasadena",
    "STATE":"CA",
    "INSTNM-2":"California Institute of Technology",
    "Degree":"Mathematics",
    "Rank":9
    }
  },
  {
    "type": "Feature",
    "geometry": {
       "type": "Point",
       "coordinates":  [ -72.92668914,41.31116641 ]
    },
    "properties": {
    "INSTNM":"Yale University",
    "X":-72.92668914,
    "Y":41.31116641,
    "CITY":"New Haven",
    "STATE":"CT",
    "INSTNM-2":"Yale University",
    "Degree":"Mathematics",
    "Rank":9
    }
  },
  {
    "type": "Feature",
    "geometry": {
       "type": "Point",
       "coordinates":  [ -76.48308636,42.44720849 ]
    },
    "properties": {
    "INSTNM":"Cornell University",
    "X":-76.48308636,
    "Y":42.44720849,
    "CITY":"Ithaca",
    "STATE":"NY",
    "INSTNM-2":"Cornell University",
    "Degree":"Mathematics",
    "Rank":13
    }
  },
  {
    "type": "Feature",
    "geometry": {
       "type": "Point",
       "coordinates":  [ -97.73929863,30.28609522 ]
    },
    "properties": {
    "INSTNM":"The University of Texas at Austin",
    "X":-97.73929863,
    "Y":30.28609522,
    "CITY":"Austin",
    "STATE":"TX",
    "INSTNM-2":"The University of Texas at Austin",
    "Degree":"Mathematics",
    "Rank":14
    }
  },
  {
    "type": "Feature",
    "geometry": {
       "type": "Point",
       "coordinates":  [ -75.19391178,39.95093706 ]
    },
    "properties": {
    "INSTNM":"University of Pennsylvania",
    "X":-75.19391178,
    "Y":39.95093706,
    "CITY":"Philadelphia",
    "STATE":"PA",
    "INSTNM-2":"University of Pennsylvania",
    "Degree":"Mathematics",
    "Rank":16
    }
  },
  {
    "type": "Feature",
    "geometry": {
       "type": "Point",
       "coordinates":  [ -117.2378049,32.87660278 ]
    },
    "properties": {
    "INSTNM":"University of California-San Diego",
    "X":-117.2378049,
    "Y":32.87660278,
    "CITY":"La Jolla",
    "STATE":"CA",
    "INSTNM-2":"University of California-San Diego",
    "Degree":"Mathematics",
    "Rank":19
    }
  },
  {
    "type": "Feature",
    "geometry": {
       "type": "Point",
       "coordinates":  [ -71.11831361,42.37447967 ]
    },
    "properties": {
    "INSTNM":"Harvard University",
    "X":-71.11831361,
    "Y":42.37447967,
    "CITY":"Cambridge",
    "STATE":"MA",
    "INSTNM-2":"Harvard University",
    "Degree":"Mathematics",
    "Rank":2
    }
  },
  {
    "type": "Feature",
    "geometry": {
       "type": "Point",
       "coordinates":  [ -122.1644471,37.42953693 ]
    },
    "properties": {
    "INSTNM":"Stanford University",
    "X":-122.1644471,
    "Y":37.42953693,
    "CITY":"Stanford",
    "STATE":"CA",
    "INSTNM-2":"Stanford University",
    "Degree":"Mathematics",
    "Rank":2
    }
  },
  {
    "type": "Feature",
    "geometry": {
       "type": "Point",
       "coordinates":  [ -87.60120173,41.78917784 ]
    },
    "properties": {
    "INSTNM":"University of Chicago",
    "X":-87.60120173,
    "Y":41.78917784,
    "CITY":"Chicago",
    "STATE":"IL",
    "INSTNM-2":"University of Chicago",
    "Degree":"Mathematics",
    "Rank":6
    }
  },
  {
    "type": "Feature",
    "geometry": {
       "type": "Point",
       "coordinates":  [ -118.4439132,34.06889685 ]
    },
    "properties": {
    "INSTNM":"University of California-Los Angeles",
    "X":-118.4439132,
    "Y":34.06889685,
    "CITY":"Los Angeles",
    "STATE":"CA",
    "INSTNM-2":"University of California-Los Angeles",
    "Degree":"Mathematics",
    "Rank":7
    }
  },
  {
    "type": "Feature",
    "geometry": {
       "type": "Point",
       "coordinates":  [ -73.99726545,40.72946026 ]
    },
    "properties": {
    "INSTNM":"New York University",
    "X":-73.99726545,
    "Y":40.72946026,
    "CITY":"New York",
    "STATE":"NY",
    "INSTNM-2":"New York University",
    "Degree":"Mathematics",
    "Rank":9
    }
  },
  {
    "type": "Feature",
    "geometry": {
       "type": "Point",
       "coordinates":  [ -83.74277362,42.27592913 ]
    },
    "properties": {
    "INSTNM":"University of Michigan-Ann Arbor",
    "X":-83.74277362,
    "Y":42.27592913,
    "CITY":"Ann Arbor",
    "STATE":"MI",
    "INSTNM-2":"University of Michigan-Ann Arbor",
    "Degree":"Mathematics",
    "Rank":12
    }
  },
  {
    "type": "Feature",
    "geometry": {
       "type": "Point",
       "coordinates":  [ -71.40385067,41.82617856 ]
    },
    "properties": {
    "INSTNM":"Brown University",
    "X":-71.40385067,
    "Y":41.82617856,
    "CITY":"Providence",
    "STATE":"RI",
    "INSTNM-2":"Brown University",
    "Degree":"Mathematics",
    "Rank":14
    }
  },
  {
    "type": "Feature",
    "geometry": {
       "type": "Point",
       "coordinates":  [ -78.93762671,36.00114212 ]
    },
    "properties": {
    "INSTNM":"Duke University",
    "X":-78.93762671,
    "Y":36.00114212,
    "CITY":"Durham",
    "STATE":"NC",
    "INSTNM-2":"Duke University",
    "Degree":"Mathematics",
    "Rank":16
    }
  },
  {
    "type": "Feature",
    "geometry": {
       "type": "Point",
       "coordinates":  [ -89.4053624,43.07386595 ]
    },
    "properties": {
    "INSTNM":"University of Wisconsin-Madison",
    "X":-89.4053624,
    "Y":43.07386595,
    "CITY":"Madison",
    "STATE":"WI",
    "INSTNM-2":"University of Wisconsin-Madison",
    "Degree":"Mathematics",
    "Rank":16
    }
  },
  {
    "type": "Feature",
    "geometry": {
       "type": "Point",
       "coordinates":  [ -88.23031476,40.10887151 ]
    },
    "properties": {
    "INSTNM":"University of Illinois at Urbana-Champaign",
    "X":-88.23031476,
    "Y":40.10887151,
    "CITY":"Champaign",
    "STATE":"IL",
    "INSTNM-2":"University of Illinois at Urbana-Champaign",
    "Degree":"Mathematics",
    "Rank":19
    }
  },
  {
    "type": "Feature",
    "geometry": {
       "type": "Point",
       "coordinates":  [ -93.23535974,44.977894 ]
    },
    "properties": {
    "INSTNM":"University of Minnesota-Twin Cities",
    "X":-93.23535974,
    "Y":44.977894,
    "CITY":"Minneapolis",
    "STATE":"MN",
    "INSTNM-2":"",
    "Degree":"Mathematics",
    "Rank":19
    }
  },
  {
    "type": "Feature",
    "geometry": {
       "type": "Point",
       "coordinates":  [ -71.0921156,42.36010367 ]
    },
    "properties": {
    "INSTNM":"Massachusetts Institute of Technology",
    "X":-71.0921156,
    "Y":42.36010367,
    "CITY":"Cambridge",
    "STATE":"MA",
    "INSTNM-2":"Massachusetts Institute of Technology",
    "Degree":"Physics",
    "Rank":1
    }
  },
  {
    "type": "Feature",
    "geometry": {
       "type": "Point",
       "coordinates":  [ -118.1257522,34.13927987 ]
    },
    "properties": {
    "INSTNM":"California Institute of Technology",
    "X":-118.1257522,
    "Y":34.13927987,
    "CITY":"Pasadena",
    "STATE":"CA",
    "INSTNM-2":"California Institute of Technology",
    "Degree":"Physics",
    "Rank":3
    }
  },
  {
    "type": "Feature",
    "geometry": {
       "type": "Point",
       "coordinates":  [ -74.65936664,40.34874016 ]
    },
    "properties": {
    "INSTNM":"Princeton University",
    "X":-74.65936664,
    "Y":40.34874016,
    "CITY":"Princeton",
    "STATE":"NJ",
    "INSTNM-2":"Princeton University",
    "Degree":"Physics",
    "Rank":3
    }
  },
  {
    "type": "Feature",
    "geometry": {
       "type": "Point",
       "coordinates":  [ -76.48308636,42.44720849 ]
    },
    "properties": {
    "INSTNM":"Cornell University",
    "X":-76.48308636,
    "Y":42.44720849,
    "CITY":"Ithaca",
    "STATE":"NY",
    "INSTNM-2":"Cornell University",
    "Degree":"Physics",
    "Rank":7
    }
  },
  {
    "type": "Feature",
    "geometry": {
       "type": "Point",
       "coordinates":  [ -88.23031476,40.10887151 ]
    },
    "properties": {
    "INSTNM":"University of Illinois at Urbana-Champaign",
    "X":-88.23031476,
    "Y":40.10887151,
    "CITY":"Champaign",
    "STATE":"IL",
    "INSTNM-2":"University of Illinois at Urbana-Champaign",
    "Degree":"Physics",
    "Rank":9
    }
  },
  {
    "type": "Feature",
    "geometry": {
       "type": "Point",
       "coordinates":  [ -119.8464385,34.4163018 ]
    },
    "properties": {
    "INSTNM":"University of California-Santa Barbara",
    "X":-119.8464385,
    "Y":34.4163018,
    "CITY":"Santa Barbara",
    "STATE":"CA",
    "INSTNM-2":"University of California-Santa Barbara",
    "Degree":"Physics",
    "Rank":10
    }
  },
  {
    "type": "Feature",
    "geometry": {
       "type": "Point",
       "coordinates":  [ -83.74277362,42.27592913 ]
    },
    "properties": {
    "INSTNM":"University of Michigan-Ann Arbor",
    "X":-83.74277362,
    "Y":42.27592913,
    "CITY":"Ann Arbor",
    "STATE":"MI",
    "INSTNM-2":"University of Michigan-Ann Arbor",
    "Degree":"Physics",
    "Rank":13
    }
  },
  {
    "type": "Feature",
    "geometry": {
       "type": "Point",
       "coordinates":  [ -76.94472327,38.98818581 ]
    },
    "properties": {
    "INSTNM":"University of Maryland-College Park",
    "X":-76.94472327,
    "Y":38.98818581,
    "CITY":"College Park",
    "STATE":"MD",
    "INSTNM-2":"University of Maryland-College Park",
    "Degree":"Physics",
    "Rank":14
    }
  },
  {
    "type": "Feature",
    "geometry": {
       "type": "Point",
       "coordinates":  [ -76.62159719,39.32898489 ]
    },
    "properties": {
    "INSTNM":"Johns Hopkins University",
    "X":-76.62159719,
    "Y":39.32898489,
    "CITY":"Baltimore",
    "STATE":"MD",
    "INSTNM-2":"Johns Hopkins University",
    "Degree":"Physics",
    "Rank":17
    }
  },
  {
    "type": "Feature",
    "geometry": {
       "type": "Point",
       "coordinates":  [ -117.2378049,32.87660278 ]
    },
    "properties": {
    "INSTNM":"University of California-San Diego",
    "X":-117.2378049,
    "Y":32.87660278,
    "CITY":"La Jolla",
    "STATE":"CA",
    "INSTNM-2":"University of California-San Diego",
    "Degree":"Physics",
    "Rank":17
    }
  },
  {
    "type": "Feature",
    "geometry": {
       "type": "Point",
       "coordinates":  [ -122.1644471,37.42953693 ]
    },
    "properties": {
    "INSTNM":"Stanford University",
    "X":-122.1644471,
    "Y":37.42953693,
    "CITY":"Stanford",
    "STATE":"CA",
    "INSTNM-2":"Stanford University",
    "Degree":"Physics",
    "Rank":1
    }
  },
  {
    "type": "Feature",
    "geometry": {
       "type": "Point",
       "coordinates":  [ -71.11831361,42.37447967 ]
    },
    "properties": {
    "INSTNM":"Harvard University",
    "X":-71.11831361,
    "Y":42.37447967,
    "CITY":"Cambridge",
    "STATE":"MA",
    "INSTNM-2":"Harvard University",
    "Degree":"Physics",
    "Rank":3
    }
  },
  {
    "type": "Feature",
    "geometry": {
       "type": "Point",
       "coordinates":  [ -122.2604762,37.87192296 ]
    },
    "properties": {
    "INSTNM":"University of California-Berkeley",
    "X":-122.2604762,
    "Y":37.87192296,
    "CITY":"Berkeley",
    "STATE":"CA",
    "INSTNM-2":"University of California-Berkeley",
    "Degree":"Physics",
    "Rank":3
    }
  },
  {
    "type": "Feature",
    "geometry": {
       "type": "Point",
       "coordinates":  [ -87.60120173,41.78917784 ]
    },
    "properties": {
    "INSTNM":"University of Chicago",
    "X":-87.60120173,
    "Y":41.78917784,
    "CITY":"Chicago",
    "STATE":"IL",
    "INSTNM-2":"University of Chicago",
    "Degree":"Physics",
    "Rank":7
    }
  },
  {
    "type": "Feature",
    "geometry": {
       "type": "Point",
       "coordinates":  [ -73.96188644,40.80829428 ]
    },
    "properties": {
    "INSTNM":"Columbia University in the City of New York",
    "X":-73.96188644,
    "Y":40.80829428,
    "CITY":"New York",
    "STATE":"NY",
    "INSTNM-2":"Columbia University in the City of New York",
    "Degree":"Physics",
    "Rank":10
    }
  },
  {
    "type": "Feature",
    "geometry": {
       "type": "Point",
       "coordinates":  [ -72.92668914,41.31116641 ]
    },
    "properties": {
    "INSTNM":"Yale University",
    "X":-72.92668914,
    "Y":41.31116641,
    "CITY":"New Haven",
    "STATE":"CT",
    "INSTNM-2":"Yale University",
    "Degree":"Physics",
    "Rank":12
    }
  },
  {
    "type": "Feature",
    "geometry": {
       "type": "Point",
       "coordinates":  [ -105.2708332,40.00878744 ]
    },
    "properties": {
    "INSTNM":"University of Colorado Boulder",
    "X":-105.2708332,
    "Y":40.00878744,
    "CITY":"Boulder",
    "STATE":"CO",
    "INSTNM-2":"University of Colorado Boulder",
    "Degree":"Physics",
    "Rank":14
    }
  },
  {
    "type": "Feature",
    "geometry": {
       "type": "Point",
       "coordinates":  [ -75.19391178,39.95093706 ]
    },
    "properties": {
    "INSTNM":"University of Pennsylvania",
    "X":-75.19391178,
    "Y":39.95093706,
    "CITY":"Philadelphia",
    "STATE":"PA",
    "INSTNM-2":"University of Pennsylvania",
    "Degree":"Physics",
    "Rank":14
    }
  },
  {
    "type": "Feature",
    "geometry": {
       "type": "Point",
       "coordinates":  [ -118.4439132,34.06889685 ]
    },
    "properties": {
    "INSTNM":"University of California-Los Angeles",
    "X":-118.4439132,
    "Y":34.06889685,
    "CITY":"Los Angeles",
    "STATE":"CA",
    "INSTNM-2":"University of California-Los Angeles",
    "Degree":"Physics",
    "Rank":17
    }
  },
  {
    "type": "Feature",
    "geometry": {
       "type": "Point",
       "coordinates":  [ -97.73929863,30.28609522 ]
    },
    "properties": {
    "INSTNM":"The University of Texas at Austin",
    "X":-97.73929863,
    "Y":30.28609522,
    "CITY":"Austin",
    "STATE":"TX",
    "INSTNM-2":"The University of Texas at Austin",
    "Degree":"Physics",
    "Rank":17
    }
  },
  {
    "type": "Feature",
    "geometry": {
       "type": "Point",
       "coordinates":  [ -89.4053624,43.07386595 ]
    },
    "properties": {
    "INSTNM":"University of Wisconsin-Madison",
    "X":-89.4053624,
    "Y":43.07386595,
    "CITY":"Madison",
    "STATE":"WI",
    "INSTNM-2":"",
    "Degree":"Physics",
    "Rank":17
    }
  }
]
}